[
  {
    "id": 0,
    "type": "summit",
    "picture": "none",
    "location": "Google Singapore",
    "date": "06/03/2015",
    "start_timestamp": 1425571200,
    "end_timestamp": 1425654000,
    "timezone": "SGT",
    "latlong": "1.352083, 103.819836",
    "description": "8 Marina View\nAsia Square 1 #30-01\nSingapore 018960",
    "apply_url": "https://services.google.com/fb/forms/iwd15sinsummitapplication/",
    "image": "events/Singapore.jpg"
  },
  {
    "id": 1,
    "type": "summit",
    "picture": "none",
    "location": "Google Mountain View",
    "date": "07/03/2015",
    "start_timestamp": 1425715200,
    "end_timestamp": 1425798000,
    "timezone": "PST",
    "latlong": "37.386052, -122.083851",
    "description": "\n1600 Amphitheatre Parkway\nMountain View, CA 94043",
    "apply_url": "https://services.google.com/fb/forms/iwd15mtvsummitapplication/",
    "image": "events/MountainView.jpg"
  },
  {
    "id": 2,
    "type": "summit",
    "picture": "none",
    "location": "Google New York",
    "date": "07/03/2015",
    "start_timestamp": 1425704400,
    "end_timestamp": 1425787200,
    "timezone": "EST",
    "latlong": "40.712784, -74.005941",
    "description": "76 Ninth Avenue\n4th Floor\nNew York, NY 10011",
    "apply_url": "https://services.google.com/fb/forms/iwd15nycsummitapplication/",
    "image": "events/NewYork.jpg"
  },
  {
    "id": 3,
    "type": "summit",
    "picture": "none",
    "location": "Google Mexico",
    "date": "06/03/2015",
    "start_timestamp": 1425621600,
    "end_timestamp": 1425704400,
    "timezone": "CST",
    "latlong": "19.427703, -99.203933",
    "description": "Paseo de la Reforma #115, Piso 22\nCol. Lomas de Chapultepec\nMéxico D.F. 11000, México",
    "apply_url": "https://services.google.com/fb/forms/iwd15mexsummitapplication/",
    "image": "events/Mexico.jpg"
  },
  {
    "id": 4,
    "type": "summit",
    "picture": "none",
    "location": "Google Tel Aviv",
    "date": "08/03/2015",
    "start_timestamp": 1425826800,
    "end_timestamp": 1425841200,
    "timezone": "IST",
    "latlong": "32.085300, 34.781768",
    "description": "98 Yigal Alon St.\nElectra Tower, Floor 29\nTel-Aviv, 6789141",
    "apply_url": "https://services.google.com/fb/forms/iwd15tlvsummitapplication/",
    "image": "events/Israel.jpg"
  },
  {
    "id": 5,
    "type": "summit",
    "picture": "none",
    "location": "Google Brasil",
    "start_timestamp": 1426302000,
    "end_timestamp": 1426384800,
    "timezone": "BRT",
    "date": "14/03/2015",
    "latlong": "-23.550520, -46.633309",
    "description": "Av. Brigadeiro Faria Lima, 3477 - 18º andar\nSão Paulo, 04538-133",
    "apply_url": "https://services.google.com/fb/forms/iwd15saosummitapplication/",
    "image": "events/SaoPaulo.jpg"
  },
  {
    "id": 6,
    "type": "summit",
    "picture": "none",
    "location": "Google Cambridge",
    "start_timestamp": 1426737600,
    "end_timestamp": 1426820400,
    "timezone": "EDT",
    "date": "19/03/2015",
    "latlong": "42.373616, -71.109734",
    "description": "355 Main Street, 5th Floor\nCambridge, MA 02142",
    "apply_url": "https://services.google.com/fb/forms/iwd15camsummitapplication/",
    "image": "events/Cambridge.jpg"
  },
  {
    "id": 7,
    "type": "summit",
    "picture": "none",
    "location": "Google Paris",
    "start_timestamp": 1427907600,
    "end_timestamp": 1427920200,
    "timezone": "CET",
    "date": "01/04/2015",
    "latlong": "48.856614, 2.352222",
    "description": "8 Rue de Londres\n75009 Paris",
    "apply_url": "https://services.google.com/fb/forms/iwd15parsummitapplication/",
    "image": "events/Paris.jpg"
  },
  {
    "id": 8,
    "type": "summit",
    "picture": "none",
    "location": "Google Zürich",
    "start_timestamp": 1427473800,
    "end_timestamp": 1427488200,
    "timezone": "CET",
    "date": "27/03/2015",
    "latlong": "47.368650, 8.539183",
    "description": "Brandschenkestrasse 110\n8002 Zürich",
    "apply_url": "https://services.google.com/fb/forms/iwd15zursummitapplication/",
    "image": "events/Zurich.jpg"
  },
  {
    "id": 9,
    "type": "summit",
    "picture": "none",
    "location": "Google Kirkland",
    "start_timestamp": 1427526000,
    "end_timestamp": 1427608800,
    "timezone": "PDT",
    "date": "28/03/2015",
    "latlong": "47.681488, -122.208735",
    "description": "747 6th Street South,\nKirkland, WA 98033",
    "apply_url": "https://services.google.com/fb/forms/iwd15kirsummitapplication/",
    "image": "events/Kirkland.jpg"
  },
  {
    "id": 10,
    "type": "summit",
    "picture": "none",
    "location": "Google Japan",
    "start_timestamp": 1427468400,
    "end_timestamp": 1427551200,
    "timezone": "JST",
    "date": "28/03/2015",
    "latlong": "35.709026, 139.731992",
    "description": "Roppongi Hills Mori Tower\nPO Box 22, 6-10-1 Roppongi\nMinato-ku, Tokyo 106-6126",
    "apply_url": "https://services.google.com/fb/forms/iwd15toksummitapplication/",
    "image": "events/Tokyo.jpg"
  },
  {
    "id": 11,
    "type": "summit",
    "picture": "none",
    "location": "Google Bangalore",
    "start_timestamp": 1427481000,
    "end_timestamp": 1427565600,
    "timezone": "IST",
    "date": "28/03/2015",
    "latlong": "12.971599, 77.594563",
    "description": "No. 3, RMZ Infinity - Tower E\nOld Madras Road\n3rd, 4th, and 5th Floors\nBangalore, 560 0166",
    "apply_url": "https://services.google.com/fb/forms/iwd15blrsummitapplication/",
    "image": "events/Bangalore.jpg"
  },
  {
    "id": 12,
    "type": "summit",
    "picture": "none",
    "location": "Google London",
    "start_timestamp": 1427738400,
    "end_timestamp": 1427751000,
    "timezone": "GMT",
    "date": "30/03/2015",
    "latlong": "51.507351, -0.127758",
    "description": "\n1-13 St Giles High Street\nLondon WC2H 8AG",
    "apply_url": "https://services.google.com/fb/forms/iwd15lonsummitapplication/",
    "image": "events/London.jpg"
  }
]